City_ID,City,Lat,Lng,Max Temp,Humidity,Cloudiness,Wind Speed,Country,Date
0,cesme,38.3228,26.3064,51.51,87,0,0.0,TR,1682313856
1,busselton,-33.65,115.3333,59.85,58,49,17.36,AU,1682313805
2,wuzhou,23.4833,111.3167,68.4,82,99,7.47,CN,1682313856
3,trairi,-3.2778,-39.2689,73.9,90,64,6.71,BR,1682313857
4,fairview,40.8126,-73.999,51.24,68,20,16.11,US,1682313857
5,rikitea,-23.1203,-134.9692,79.74,87,100,15.79,PF,1682313857
6,the valley,18.217,-63.0578,78.66,75,11,6.33,AI,1682313857
7,longyearbyen,78.2186,15.6401,13.84,85,0,8.05,SJ,1682313654
8,tuktoyaktuk,69.4541,-133.0374,-5.8,84,75,4.61,CA,1682313858
9,nishihara,26.1842,127.7558,78.46,65,40,10.36,JP,1682313820
10,raudeberg,61.9875,5.1352,38.07,70,100,36.08,NO,1682313858
11,hermanus,-34.4187,19.2345,64.8,93,100,9.64,ZA,1682313858
12,nikolskoye,59.7035,30.7861,57.09,62,21,9.17,RU,1682313859
13,fort abbas,29.1925,72.8536,90.54,14,0,9.57,PK,1682313859
14,ribeira grande,38.5167,-28.7,62.78,92,100,15.01,PT,1682313859
15,hilo,19.7297,-155.09,76.28,85,100,5.75,US,1682313859
16,inuvik,68.3499,-133.7218,-4.94,84,20,8.05,CA,1682313678
17,vaini,-21.2,-175.2,78.96,78,40,6.91,TO,1682313860
18,vire,48.9167,-0.8333,45.79,97,45,5.66,FR,1682313861
19,nioro,13.35,-15.75,77.05,31,5,6.98,GM,1682313861
20,portland,45.5234,-122.6762,50.67,81,100,8.99,US,1682313861
21,ilulissat,69.2167,-51.1,32.02,100,100,3.44,GL,1682313862
22,albany,42.6001,-73.9662,42.04,83,99,8.99,US,1682313862
23,ushuaia,-54.8,-68.3,44.26,61,100,3.44,AR,1682313862
24,narsaq,60.9167,-46.05,32.22,75,87,2.39,GL,1682313862
25,cape town,-33.9258,18.4232,65.12,97,100,16.11,ZA,1682313810
26,kargasok,59.0556,80.8572,40.73,94,100,11.05,RU,1682313863
27,los llanos de aridane,28.6585,-17.9182,60.55,85,100,9.22,ES,1682313864
28,puerto ayora,-0.7393,-90.3518,77.56,93,44,1.01,EC,1682313864
29,kodiak,57.79,-152.4072,33.31,51,100,14.97,US,1682313865
30,karagay,58.2667,54.9368,47.37,60,100,3.94,RU,1682313865
31,provideniya,64.3833,-173.3,21.31,68,0,17.9,RU,1682313865
32,kolchugino,56.3,39.3833,55.49,56,16,5.59,RU,1682313865
33,bilibino,68.0546,166.4372,32.85,75,1,5.57,RU,1682313865
34,coihaique,-45.5752,-72.0662,48.81,96,74,5.17,CL,1682313866
35,fairbanks,64.8378,-147.7164,17.94,55,100,18.41,US,1682313866
36,port hueneme,34.1478,-119.1951,62.96,90,0,5.75,US,1682313866
37,tukrah,32.5341,20.5791,63.7,76,77,10.18,LY,1682313638
38,kununurra,-15.7667,128.7333,91.38,35,2,5.75,AU,1682313866
39,castro,-24.7911,-50.0119,54.03,98,36,4.72,BR,1682313867
40,koungou,-12.7336,45.2042,85.71,79,91,0.0,YT,1682313867
41,lavrentiya,65.5833,-171.0,14.13,82,0,6.85,RU,1682313867
42,sharjah,25.3573,55.4033,84.49,20,0,4.61,AE,1682313750
43,carnarvon,-24.8667,113.6333,73.76,64,100,17.83,AU,1682313868
44,port alfred,-33.5906,26.891,71.46,60,100,7.25,ZA,1682313868
45,nouakchott,18.0858,-15.9785,67.93,78,2,10.18,MR,1682313869
46,swan hill,-35.3378,143.5544,78.04,36,0,9.33,AU,1682313869
47,dikson,73.5069,80.5464,33.67,87,97,13.18,RU,1682313869
48,esperance,-33.8667,121.9,76.51,44,81,17.81,AU,1682313869
49,pevek,69.7008,170.3133,30.87,79,1,1.68,RU,1682313869
50,ipixuna,-1.7625,-48.8043,72.59,97,100,1.95,BR,1682313870
51,college,64.8569,-147.8028,17.92,55,100,18.41,US,1682313870
52,novobelokatay,55.7062,58.9549,51.64,64,86,4.94,RU,1682313870
53,atuona,-9.8,-139.0333,81.43,77,9,12.86,PF,1682313871
54,egvekinot,66.3167,-179.1667,14.99,77,0,7.54,RU,1682313872
55,yining,29.0361,114.5636,51.96,92,100,2.01,CN,1682313872
56,borodino,55.9106,94.8983,51.12,30,96,7.83,RU,1682313872
57,mataura,-46.1927,168.8643,52.48,76,62,8.61,NZ,1682313873
58,georgetown,5.4112,100.3354,91.33,74,20,8.05,MY,1682313833
59,zalesovo,53.9939,84.7431,53.38,59,96,14.7,RU,1682313873
60,port-gentil,-0.7193,8.7815,81.0,80,100,4.32,GA,1682313873
61,balaipungut,1.05,101.2833,88.72,64,99,2.82,ID,1682313874
62,cam ranh,11.9214,109.1591,89.56,62,20,10.36,VN,1682313663
63,chuy,-33.6971,-53.4616,62.8,95,53,5.32,UY,1682313875
64,avarua,-21.2078,-159.775,73.45,73,57,4.61,CK,1682313875
65,beian,63.6559,9.5683,35.69,75,75,16.11,NO,1682313876
66,sayat,38.7839,63.8803,80.47,13,35,16.26,TM,1682313659
67,san quintin,30.4833,-115.95,57.43,84,3,3.33,MX,1682313876
68,manaus,-3.1019,-60.025,79.29,89,40,4.61,BR,1682313876
69,bluff,-46.6,168.3333,52.81,62,97,23.96,NZ,1682313877
70,yellowknife,62.456,-114.3525,35.56,80,20,8.01,CA,1682313643
71,makungu,-8.7333,35.2833,65.39,98,100,2.44,TZ,1682313877
72,ilebo,-4.3167,20.5833,70.29,97,100,1.9,CD,1682313877
73,ulaangom,49.9811,92.0667,45.57,26,100,6.4,MN,1682313877
74,hofn,64.2539,-15.2082,32.23,48,29,6.42,IS,1682313878
75,yerbogachen,61.2767,108.0108,33.39,72,84,7.85,RU,1682313878
76,maryborough,-25.5333,152.7,78.12,49,25,15.19,AU,1682313878
77,muros,42.7762,-9.0603,60.67,93,98,8.25,ES,1682313879
78,husavik,66.0449,-17.3389,29.86,65,16,3.13,IS,1682313879
79,faanui,-16.4833,-151.75,81.48,77,79,8.43,PF,1682313879
80,barrow,71.2906,-156.7887,1.42,85,100,16.11,US,1682313880
81,falavarjan,32.5553,51.5097,65.41,40,41,1.74,IR,1682313880
82,sorland,67.667,12.6934,35.46,56,10,10.85,NO,1682313880
83,thompson,55.7435,-97.8558,26.76,63,20,2.3,CA,1682313880
84,impfondo,1.6381,18.0667,70.0,96,80,2.53,CG,1682313650
85,walvis bay,-22.9575,14.5053,65.35,88,75,6.91,NA,1682313881
86,bushehr,28.9684,50.8385,82.49,34,0,0.0,IR,1682313882
87,upernavik,72.7868,-56.1549,27.3,98,97,4.59,GL,1682313882
88,katsuura,35.1333,140.3,53.91,61,100,12.01,JP,1682313641
89,new norfolk,-42.7826,147.0587,67.91,40,1,5.01,AU,1682313882
90,luderitz,-26.6481,15.1594,61.5,62,100,7.81,NA,1682313614
91,bredasdorp,-34.5322,20.0403,64.22,91,100,6.08,ZA,1682313883
92,arraial do cabo,-22.9661,-42.0278,70.7,71,0,4.18,BR,1682313883
93,taoudenni,22.6783,-3.9836,79.86,21,0,8.43,ML,1682313883
94,adelaide,-34.9333,138.6,83.86,40,20,11.5,AU,1682313840
95,hasaki,35.7333,140.8333,64.29,41,100,11.12,JP,1682313677
96,ucluelet,48.9329,-125.5528,45.09,94,100,1.05,CA,1682313884
97,villa rica,33.7321,-84.9191,55.22,71,100,7.27,US,1682313884
98,lander,42.833,-108.7307,43.2,56,0,0.0,US,1682313884
99,niquelandia,-14.4739,-48.4597,66.88,81,9,3.47,BR,1682313885
100,aswan,24.0934,32.907,79.9,27,0,11.5,EG,1682313885
101,chapais,49.7834,-74.8492,35.38,99,100,4.85,CA,1682313886
102,sinnamary,5.3833,-52.95,75.61,88,99,0.2,GF,1682313886
103,cherskiy,68.75,161.3,37.26,74,2,5.64,RU,1682313886
104,grand gaube,-20.0064,57.6608,83.37,73,52,8.99,MU,1682313887
105,henties bay,-22.116,14.2845,65.59,76,64,7.4,NA,1682313887
106,lebu,-37.6167,-73.65,51.84,87,5,7.87,CL,1682313887
107,nemuro,43.3236,145.575,38.23,87,99,9.04,JP,1682313778
108,tautira,-17.7333,-149.15,79.23,86,100,11.56,PF,1682313887
109,hithadhoo,-0.6,73.0833,84.49,69,100,5.39,MV,1682313888
110,jamestown,42.097,-79.2353,42.39,93,100,5.75,US,1682313888
111,sao felix do xingu,-6.6447,-51.995,70.32,94,100,0.74,BR,1682313888
112,la ronge,55.1001,-105.2842,39.42,35,75,12.66,CA,1682313888
113,mahebourg,-20.4081,57.7,83.25,78,40,9.22,MU,1682313889
114,skrunda,56.6833,22.0167,52.14,86,97,3.65,LV,1682313889
115,arona,28.0996,-16.681,57.83,72,20,6.91,ES,1682313890
116,hobart,-42.8794,147.3294,68.25,51,0,12.66,AU,1682313890
117,rajanpur,29.1035,70.325,92.05,10,14,3.51,PK,1682313890
118,leningradskiy,69.3833,178.4167,6.66,90,12,15.99,RU,1682313890
119,kahului,20.8947,-156.47,77.02,76,40,3.44,US,1682313890
120,punta arenas,-53.15,-70.9167,41.11,93,100,6.91,CL,1682313891
121,tuy hoa,13.0833,109.3,89.46,57,35,9.53,VN,1682313825
122,qaanaaq,77.484,-69.3632,6.48,71,54,8.14,GL,1682313891
123,havelock,34.8791,-76.9013,65.95,89,0,3.44,US,1682313892
124,novikovo,51.1537,37.8879,51.44,76,54,3.09,RU,1682313892
125,murray bridge,-35.1167,139.2667,84.13,35,0,11.59,AU,1682313831
126,bubaque,11.2833,-15.8333,79.68,62,11,9.8,GW,1682313892
127,mbini,1.574,9.6134,77.47,86,95,3.24,GQ,1682313892
128,bilma,18.6853,12.9164,82.56,8,91,7.16,NE,1682313893
129,foix,42.8333,1.5833,45.09,84,81,3.76,FR,1682313893
130,jalu,29.0331,21.5482,72.07,31,0,13.11,LY,1682313894
131,tiksi,71.6872,128.8694,21.45,85,39,6.93,RU,1682313895
132,uppsala,60.0,17.75,35.11,93,100,9.22,SE,1682313896
133,port elizabeth,-33.918,25.5701,65.32,96,20,5.75,ZA,1682313896
134,maceio,-9.6658,-35.7353,78.24,83,20,4.61,BR,1682313896
135,tanout,14.9709,8.8879,78.01,8,88,8.93,NE,1682313897
136,gao,16.6362,1.637,80.78,20,14,7.38,ML,1682313897
137,ahipara,-35.1667,173.1667,61.05,56,37,18.14,NZ,1682313898
138,roseau,15.3017,-61.3881,78.62,76,53,1.97,DM,1682313898
139,meulaboh,4.1363,96.1285,87.01,66,96,3.62,ID,1682313898
140,tasiilaq,65.6145,-37.6368,30.36,96,98,8.5,GL,1682313899
141,pisco,-13.7,-76.2167,70.02,88,0,0.0,PE,1682313899
142,talnakh,69.4865,88.3972,36.21,82,78,8.9,RU,1682313651
143,cravo norte,6.3017,-70.2041,77.16,84,97,4.97,CO,1682313900
144,makakilo city,21.3469,-158.0858,77.32,74,100,8.05,US,1682313905
145,norrtalje,59.758,18.705,39.02,86,92,6.55,SE,1682313907
146,navirai,-23.065,-54.1906,65.95,97,69,4.74,BR,1682313907
147,djibo,14.1022,-1.6306,83.21,16,49,9.17,BF,1682313912
148,kapaa,22.0752,-159.319,78.78,93,75,5.75,US,1682313912
149,dalby,-27.1833,151.2667,73.38,46,13,25.14,AU,1682313618
150,salinas,36.6777,-121.6555,55.42,83,100,12.66,US,1682313913
151,hamilton,39.1834,-84.5333,38.73,80,0,0.0,US,1682313913
152,port hardy,50.6996,-127.4199,44.6,93,100,8.05,CA,1682313913
153,norman wells,65.282,-126.8329,8.64,85,100,9.22,CA,1682313914
154,porto walter,-8.2686,-72.7439,71.55,98,98,1.95,BR,1682313914
155,ponta do sol,32.6667,-17.1,63.23,76,38,3.78,PT,1682313914
156,xai-xai,-25.0519,33.6442,72.37,78,9,4.41,MZ,1682313915
157,bahia blanca,-38.7196,-62.2724,56.82,82,0,4.0,AR,1682313915
158,saravan,39.7196,45.6483,56.52,50,58,5.5,AM,1682313915
159,dhidhdhoo,6.8833,73.1,84.63,68,88,9.31,MV,1682313915
160,poum,-20.2333,164.0167,78.71,78,51,23.02,NC,1682313916
161,auki,-8.7676,160.7034,82.83,77,28,1.61,SB,1682313916
162,hadejia,12.4498,10.0444,80.78,50,93,12.71,NG,1682313643
163,samarai,-10.6167,150.6667,84.88,71,24,8.99,PG,1682313917
164,khatanga,71.9667,102.5,25.83,84,15,8.32,RU,1682313917
165,konosha,60.9736,40.257,49.98,66,74,7.31,RU,1682313917
166,nabire,-3.3667,135.4833,85.75,67,29,5.79,ID,1682313801
167,maldonado,-34.6667,-54.9167,63.14,95,89,4.97,UY,1682313917
168,altoona,40.5187,-78.3947,39.45,81,5,3.62,US,1682313918
169,east london,-33.0153,27.9116,67.14,72,0,5.75,ZA,1682313918
170,srednekolymsk,67.45,153.6833,34.86,85,100,16.2,RU,1682313919
171,tokmak,47.2514,35.7058,53.78,70,37,4.36,UA,1682313919
172,eregli,37.5133,34.0467,48.81,73,41,4.68,TR,1682313919
173,ampanihy,-24.7,44.75,69.57,88,20,10.69,MG,1682313919
174,richards bay,-28.783,32.0377,65.07,82,56,4.9,ZA,1682313920
175,namibe,-15.1961,12.1522,74.73,71,36,8.7,AO,1682313920
176,severo-kurilsk,50.6789,156.125,32.45,79,100,22.53,RU,1682313920
177,coahuayana,18.7333,-103.6833,74.32,85,71,2.57,MX,1682313921
178,doha,25.2867,51.5333,87.78,32,0,12.66,QA,1682313921
179,maragogi,-9.0122,-35.2225,76.01,86,88,6.38,BR,1682313921
180,alofi,-19.0595,-169.9187,76.89,78,75,6.91,NU,1682313922
181,ostrovnoy,68.0531,39.5131,22.08,87,11,16.24,RU,1682313922
182,yumen,40.2833,97.2,58.77,20,34,27.11,CN,1682313922
183,belmonte,-15.8631,-38.8828,74.62,91,100,10.78,BR,1682313922
184,russell,32.3502,-85.1999,63.68,48,0,5.75,US,1682313923
185,sao filipe,14.8961,-24.4956,73.74,71,3,14.79,CV,1682313923
186,pringsewu,-5.3582,104.9744,84.78,79,37,5.03,ID,1682313829
187,cap malheureux,-19.9842,57.6142,83.46,73,52,8.99,MU,1682313923
188,mattru,7.6244,-11.8332,78.78,90,32,1.12,SL,1682313923
189,nhulunbuy,-12.2333,136.7667,81.21,89,75,10.36,AU,1682313924
190,saskylakh,71.9167,114.0833,17.92,88,68,7.23,RU,1682313924
191,cabo san lucas,22.8909,-109.9124,76.3,58,95,13.73,MX,1682313924
192,bulawayo,-20.15,28.5833,61.63,49,73,4.83,ZW,1682313924
193,amur,54.0,128.0,33.57,48,68,11.21,RU,1682313925
194,bonthe,7.5264,-12.505,80.96,85,25,3.94,SL,1682313925
195,cedar city,37.6775,-113.0619,45.57,73,75,12.66,US,1682313926
196,bondo,3.8146,23.6866,68.38,94,92,1.34,CD,1682313926
197,port keats,-14.25,129.55,91.67,45,6,4.76,AU,1682313927
198,miri,4.4148,114.0089,78.94,89,40,5.75,MY,1682313927
199,mao,39.8885,4.2658,59.56,100,20,5.75,ES,1682313927
200,magadan,59.5667,150.8,40.53,72,100,12.08,RU,1682313927
201,chipinge,-20.1883,32.6236,62.96,68,62,1.03,ZW,1682313928
202,suntar,62.1444,117.6319,35.1,66,43,3.74,RU,1682313928
203,itoman,26.1247,127.6694,79.18,63,20,10.36,JP,1682313928
204,de aar,-30.6497,24.0123,60.82,52,100,4.88,ZA,1682313928
205,camacha,33.0833,-16.3333,60.22,77,20,3.44,PT,1682313928
206,codrington,-38.2667,141.9667,73.99,39,0,6.46,AU,1682313929
207,los rastrojos,10.0259,-69.2417,71.96,83,90,1.14,VE,1682313929
208,la paz,-16.5,-68.15,44.58,85,1,2.3,BO,1682313929
209,belaya gora,68.5333,146.4167,32.38,87,100,14.56,RU,1682313930
210,acapulco,16.8634,-99.8901,80.42,78,40,4.61,MX,1682313930
211,davenda,53.5556,119.317,32.61,68,71,8.77,RU,1682313930
212,kenai,60.5544,-151.2583,35.69,54,100,16.11,US,1682313930
213,aksarka,66.5606,67.7975,21.33,80,100,16.02,RU,1682313930
214,san angelo,31.4638,-100.437,49.53,89,100,9.22,US,1682313931
215,port lincoln,-34.7333,135.8667,72.36,52,0,11.01,AU,1682313931
216,springdale,36.1867,-94.1288,46.31,61,0,3.44,US,1682313931
217,butaritari,3.0707,172.7902,82.76,81,94,18.88,KI,1682313931
218,ca mau,9.1769,105.15,97.34,38,9,9.69,VN,1682313712
219,waihi beach,-37.4,175.9333,61.92,61,6,10.0,NZ,1682313933
220,arecibo,18.4724,-66.7157,76.01,91,49,5.41,PR,1682313933
221,kaitangata,-46.2817,169.8464,50.94,72,37,13.82,NZ,1682313933
222,jaru,-10.4389,-62.4664,70.93,97,95,1.39,BR,1682313934
223,flin flon,54.7682,-101.865,25.56,91,36,5.77,CA,1682313934
224,constitucion,-35.3333,-72.4167,52.92,88,6,6.38,CL,1682313934
225,dalbandin,28.8947,64.4101,86.13,13,99,6.29,PK,1682313934
226,zhigansk,66.7697,123.3711,28.62,81,94,13.69,RU,1682313935
227,galveston,29.3669,-94.9669,60.01,79,55,3.0,US,1682313935
228,hambantota,6.1241,81.1185,93.54,66,40,4.61,LK,1682313936
229,tibu,8.639,-72.7358,72.05,99,98,2.26,CO,1682313936
230,pastavy,55.1168,26.8326,53.06,71,16,10.56,BY,1682313936
231,nanortalik,60.1432,-45.2371,31.98,89,76,3.38,GL,1682313937
232,puerto carreno,6.189,-67.4859,76.93,84,75,3.8,CO,1682313937
233,koutsouras,35.0339,25.9469,62.11,61,50,7.94,GR,1682313937
234,lethem,3.3803,-59.7968,73.85,89,100,2.66,GY,1682313938
235,vardo,70.3705,31.1107,26.58,80,62,13.8,NO,1682313938
236,saint george,37.1041,-113.5841,66.43,43,40,23.02,US,1682313938
237,zhezkazgan,47.8043,67.7144,62.58,42,40,17.9,KZ,1682313938
238,dunedin,-45.8742,170.5036,52.81,10,21,18.7,NZ,1682313939
239,grand-santi,4.25,-54.3833,72.41,99,100,1.74,GF,1682313939
240,banfora,10.6333,-4.7667,79.92,66,62,5.3,BF,1682313939
241,saint-philippe,-21.3585,55.7679,83.79,67,24,8.81,RE,1682313939
242,jizan,17.3333,42.6667,90.54,42,54,1.95,SA,1682313939
243,socorro,31.6546,-106.3033,64.38,39,75,5.75,US,1682313940
244,mantua,45.1667,10.7833,56.98,89,100,1.99,IT,1682313940
245,hun,29.1268,15.9477,58.93,86,85,10.02,LY,1682313941
246,bosaso,11.2842,49.1816,87.78,62,0,23.02,SO,1682313941
247,terme,41.2092,36.9739,49.93,94,100,4.23,TR,1682313659
248,rio gallegos,-51.6226,-69.2181,44.65,87,0,1.14,AR,1682313941
249,gondanglegi,-7.7479,112.0132,87.57,68,56,3.98,ID,1682313941
250,sumbe,-11.2061,13.8437,77.97,89,89,6.35,AO,1682313942
251,geraldton,-28.7667,114.6,66.61,68,100,19.57,AU,1682313819
252,ouadda,8.0777,22.4007,69.46,93,100,2.21,CF,1682313942
253,salalah,17.0151,54.0924,86.09,62,0,9.22,OM,1682313943
254,taksimo,56.3444,114.8794,33.58,31,89,8.86,RU,1682313943
255,sur,22.5667,59.5289,85.3,60,100,4.83,OM,1682313943
256,airai,-8.9266,125.4092,69.53,78,72,4.25,TL,1682313943
257,tarauaca,-8.1614,-70.7656,71.29,99,86,1.28,BR,1682313944
258,havoysund,70.9963,24.6622,28.63,56,100,9.01,NO,1682313944
259,atar,20.5169,-13.0499,76.03,26,0,8.57,MR,1682313945
260,mount pleasant,32.7941,-79.8626,58.98,91,0,0.0,US,1682313945
261,neftcala,39.3742,49.2472,60.87,63,36,5.06,AZ,1682313945
262,nicolas bravo,18.45,-88.9167,71.06,92,92,3.22,MX,1682313946
263,torbay,47.6666,-52.7314,36.75,96,100,23.02,CA,1682313946
264,leshukonskoye,64.8989,45.7622,27.66,77,99,4.25,RU,1682313946
265,cidreira,-30.1811,-50.2056,69.4,85,96,14.09,BR,1682313946
266,acarau,-2.8856,-40.12,75.47,86,88,8.55,BR,1682313947
267,touros,-5.1989,-35.4608,75.94,89,87,9.73,BR,1682313948
268,baker city,44.7749,-117.8344,46.58,83,100,3.44,US,1682313948
269,bethel,41.3712,-73.414,48.29,85,20,3.44,US,1682313948
270,kelvington,52.1667,-103.5343,27.66,84,36,6.33,CA,1682313948
271,fortuna,40.5982,-124.1573,50.67,82,96,5.06,US,1682313949
272,paita,-5.0892,-81.1144,78.57,81,100,10.07,PE,1682313949
273,kulhudhuffushi,6.6221,73.07,84.76,68,99,9.55,MV,1682313949
274,la asuncion,11.0333,-63.8628,78.53,89,83,2.3,VE,1682313950
275,kisangani,0.5167,25.2,68.32,99,100,1.25,CD,1682313950
276,soto la marina,23.7667,-98.2167,71.06,85,96,12.62,MX,1682313951
277,saint-francois,46.4154,3.9054,47.64,81,0,5.75,FR,1682313951
278,simpang empat,4.95,100.6333,83.35,82,100,2.91,MY,1682313916
279,jieshi,22.8134,115.8257,75.31,83,99,9.28,CN,1682313951
280,victoria,22.2855,114.1577,80.96,87,84,10.0,HK,1682313929
281,morondava,-20.2833,44.2833,73.6,76,0,5.23,MG,1682313952
282,komsomolets,53.7453,62.0708,55.98,46,7,9.62,KZ,1682313952
283,moyale,3.5167,39.0584,71.89,68,77,2.75,KE,1682313952
284,kruisfontein,-34.0033,24.7314,62.89,78,100,4.41,ZA,1682313953
285,mount isa,-20.7333,139.5,89.37,29,20,10.36,AU,1682313953
286,aitape,-3.1374,142.3475,83.82,76,95,6.42,PG,1682313953
287,labuhan,-6.8844,112.2051,86.18,70,84,8.55,ID,1682313953
288,chumikan,54.7183,135.315,39.49,49,96,10.8,RU,1682313954
289,nyurba,63.2842,118.3319,31.78,83,17,6.2,RU,1682313954
290,fianarantsoa,-21.4333,47.0833,64.45,85,0,3.29,MG,1682313955
291,constantine,36.365,6.6147,51.21,76,0,2.3,DZ,1682313955
292,tuatapere,-46.1333,167.6833,50.83,70,84,10.78,NZ,1682313955
293,raymond,43.9015,-70.4703,43.25,95,100,8.66,US,1682313955
294,plettenberg bay,-34.0527,23.3716,66.78,81,100,1.19,ZA,1682313956
295,hami,42.8,93.45,63.34,19,59,10.6,CN,1682313956
296,porto novo,6.4965,2.6036,76.82,89,100,1.41,BJ,1682313956
297,benghazi,32.1167,20.0667,65.03,74,72,12.21,LY,1682313956
298,wanaka,-44.7,169.15,49.62,56,25,2.37,NZ,1682313957
299,kalna,23.2167,88.3667,93.18,35,1,3.36,IN,1682313957
300,mayo,38.8876,-76.5119,50.18,55,75,10.36,US,1682313957
301,guerrero negro,27.9769,-114.0611,58.66,84,0,11.34,MX,1682313958
302,bluefield,37.2698,-81.2223,38.77,65,100,3.44,US,1682313958
303,general pico,-35.6566,-63.7568,52.74,70,32,6.8,AR,1682313958
304,necochea,-38.5473,-58.7368,54.34,89,0,8.63,AR,1682313958
305,sembe,1.6481,14.5806,68.59,97,61,0.96,CG,1682313959
306,mossendjo,-2.9506,12.7261,69.24,99,97,0.89,CG,1682313959
307,akyab,20.15,92.9,88.39,56,10,7.63,MM,1682313959
308,sitka,57.0531,-135.33,44.49,81,100,10.36,US,1682313959
309,bambous virieux,-20.3428,57.7575,83.21,78,40,9.22,MU,1682313960
310,manzhouli,49.6,117.4333,44.02,14,93,17.02,CN,1682313960
311,nandu,22.8525,110.8233,79.66,78,73,5.44,CN,1682313960
312,leh,34.1667,77.5833,33.12,30,4,1.05,IN,1682313844
313,okha,53.5739,142.9478,34.52,73,10,21.85,RU,1682313961
314,olafsvik,64.8945,-23.7142,37.51,57,98,7.23,IS,1682313961
315,panaba,21.2833,-88.2667,75.45,79,24,10.71,MX,1682313962
316,iqaluit,63.7506,-68.5145,33.53,93,100,5.75,CA,1682313962
317,bonavista,48.6499,-53.1147,33.28,91,100,18.9,CA,1682313962
318,kalamare,-22.9337,26.5703,62.67,33,91,3.8,BW,1682313963
319,aykhal,66.0,111.5,27.28,78,90,4.36,RU,1682313963
320,upata,8.0086,-62.3989,70.11,90,92,1.41,VE,1682313963
321,terra santa,-2.1042,-56.4869,73.45,94,100,2.39,BR,1682313963
322,shush,32.1942,48.2436,87.21,22,37,6.73,IR,1682313964
323,balkanabat,39.5108,54.3671,79.09,23,100,16.69,TM,1682313964
324,nagornskiy,58.7731,57.5451,40.51,63,100,4.74,RU,1682313965
325,praya,14.9215,-23.5087,70.34,78,20,19.57,CV,1682313966
326,begunitsy,59.5855,29.3176,53.74,63,5,10.69,RU,1682313966
327,dundee,56.5,-2.9667,37.89,77,100,5.75,GB,1682313966
328,saint-augustin,51.226,-58.6502,33.37,93,1,2.24,CA,1682313966
329,saint-pierre,-21.3393,55.4781,84.56,58,0,3.44,RE,1682313677
330,proletarsk,46.7031,41.7192,54.34,75,100,9.42,RU,1682313967
331,faya,18.3851,42.4509,66.72,44,62,4.09,SA,1682313967
332,vila do maio,15.1333,-23.2167,70.59,76,3,19.84,CV,1682313968
333,chokurdakh,70.6333,147.9167,25.34,88,100,12.17,RU,1682313968
334,santo antonio do ica,-3.1022,-67.9397,73.13,99,69,2.28,BR,1682313968
335,najran,17.4924,44.1277,75.85,52,98,2.53,SA,1682313968
336,vestmanna,62.1564,-7.1664,32.92,60,100,14.97,FO,1682313969
337,bengkulu,-3.8004,102.2655,85.73,68,86,7.34,ID,1682313970
338,san patricio,28.017,-97.5169,63.84,86,100,13.13,US,1682313970
339,kataysk,56.289,62.5841,48.09,57,60,8.79,RU,1682313971
340,tura,25.5198,90.2201,87.71,33,6,3.71,IN,1682313971
341,la rioja,42.25,-2.5,46.18,97,100,2.37,ES,1682313971
342,mount gambier,-37.8333,140.7667,74.66,35,0,4.72,AU,1682313972
343,muzhi,65.3667,64.6667,26.71,72,10,20.78,RU,1682313972
344,krumovgrad,41.4667,25.65,50.95,86,4,3.74,BG,1682313973
345,kankan,10.3854,-9.3057,77.59,47,60,6.89,GN,1682313973
346,panguipulli,-39.6333,-72.3333,48.69,93,3,2.04,CL,1682313973
347,namtsy,62.7161,129.6658,32.09,88,100,13.09,RU,1682313973
348,buguias,16.7227,120.8283,76.48,60,36,1.16,PH,1682313973
349,kalmunai,7.4167,81.8167,87.93,64,99,7.99,LK,1682313974
350,noumea,-22.2763,166.4572,81.0,99,46,8.97,NC,1682313709
351,saint-georges,12.0564,-61.7485,78.06,86,99,9.62,GD,1682313974
352,ierapetra,35.01,25.7353,62.15,61,47,8.01,GR,1682313975
353,suifenhe,44.4,131.1667,50.63,13,2,14.5,CN,1682313975
354,deputatskiy,69.3,139.9,23.38,85,100,8.03,RU,1682313975
355,praia da vitoria,38.7333,-27.0667,64.65,94,75,23.87,PT,1682313975
356,niteroi,-22.8833,-43.1036,71.22,73,0,3.44,BR,1682313976
357,buala,-8.145,159.5921,84.36,74,38,3.87,SB,1682313934
358,nokaneng,-19.6667,22.2667,72.9,35,100,7.58,BW,1682313976
359,spornoye,50.8448,37.2913,50.95,76,44,4.81,RU,1682313977
360,puerto baquerizo moreno,-0.9,-89.6,78.37,80,45,8.61,EC,1682313977
361,ann arbor,42.2776,-83.7409,39.27,66,100,11.5,US,1682313977
362,cabedelo,-6.9811,-34.8339,75.87,85,97,9.28,BR,1682313977
363,hualmay,-11.0964,-77.6139,74.5,79,57,5.95,PE,1682313977
364,adrar,20.5022,-10.0711,73.54,24,0,8.23,MR,1682313978
365,lyubuchany,55.2511,37.5456,54.0,49,59,5.5,RU,1682313978
366,cairns,-16.9167,145.7667,85.06,97,75,12.66,AU,1682313978
367,masterton,-40.9597,175.6575,51.89,77,24,9.53,NZ,1682313979
368,kavaratti,10.5669,72.642,84.0,70,96,11.97,IN,1682313979
369,puerto maldonado,-12.6,-69.1833,68.9,90,18,2.08,PE,1682313979
370,souillac,-20.5167,57.5167,82.78,78,40,9.22,MU,1682313980
371,haines junction,60.7522,-137.5108,26.55,68,100,9.22,CA,1682313980
372,alyangula,-13.8483,136.4192,85.44,70,53,15.35,AU,1682313774
373,opuwo,-18.0607,13.84,64.81,68,1,2.37,NA,1682313980
374,brae,60.3964,-1.353,37.58,63,97,25.39,GB,1682313981
375,yasnyy,51.0333,59.8742,54.46,50,4,8.99,RU,1682313981
376,isangel,-19.55,169.2667,80.06,77,27,7.85,VU,1682313981
377,calvinia,-31.4707,19.776,60.69,82,100,4.23,ZA,1682313982
378,mar del plata,-38.0023,-57.5575,59.95,95,100,3.44,AR,1682313982
379,emba,48.8264,58.1442,57.83,51,1,7.49,KZ,1682313982
380,vostok,46.4856,135.8833,40.24,42,99,16.11,RU,1682313983
381,lakhna,26.65,79.15,90.99,16,30,7.02,IN,1682313852
382,vao,-22.6667,167.4833,77.4,75,41,15.1,NC,1682313983
383,visnes,59.3556,5.2242,44.65,87,75,4.61,NO,1682313984
384,los andes,-32.8337,-70.5983,55.0,64,1,0.47,CL,1682313984
385,estelle,29.8458,-90.1067,66.0,64,100,5.99,US,1682313984
386,eureka,40.8021,-124.1637,51.75,85,91,5.01,US,1682313985
387,yulara,-25.2406,130.9889,81.64,19,13,10.16,AU,1682313985
388,kirakira,-10.4544,161.9205,84.13,77,30,6.22,SB,1682313985
389,pimentel,-6.8367,-79.9342,75.49,83,40,2.3,PE,1682313986
390,dutse,11.7594,9.3392,79.48,54,100,11.88,NG,1682313986
391,katobu,-4.9408,122.5276,90.05,56,43,1.97,ID,1682313986
392,ontario,34.0633,-117.6509,67.82,81,0,8.05,US,1682313987
393,asosa,10.0667,34.5333,71.6,58,61,1.63,ET,1682313987
394,menongue,-14.6585,17.691,62.17,90,90,2.24,AO,1682313987
395,morden,49.1919,-98.1014,33.66,75,40,3.44,CA,1682313988
396,kurilsk,45.2333,147.8833,33.26,88,98,11.36,RU,1682313988
397,san ignacio,17.1561,-89.0714,75.34,78,0,4.61,BZ,1682313988
398,qasigiannguit,68.8193,-51.1922,32.25,99,100,4.56,GL,1682313988
399,nuuk,64.1835,-51.7216,32.61,100,100,6.91,GL,1682313988
400,stephenville,32.2207,-98.2023,48.24,94,0,0.0,US,1682313989
401,acucena,-19.0731,-42.5464,66.72,92,100,1.61,BR,1682313989
402,berlevag,70.8578,29.0864,30.15,80,40,12.66,NO,1682313990
403,lodja,-3.4833,23.4333,67.35,99,100,2.3,CD,1682313990
404,treinta y tres,-33.2333,-54.3833,59.79,97,76,5.77,UY,1682313991
405,zharkovskiy,55.849,32.2697,54.07,57,78,6.89,RU,1682313991
406,fare,-16.7,-151.0167,81.43,78,91,7.0,PF,1682313991
407,port augusta,-32.5,137.7667,83.07,24,0,8.14,AU,1682313991
408,omaruru,-21.4333,15.9333,62.94,72,68,8.21,NA,1682313992
409,kamaishi,39.2667,141.8833,52.9,33,92,17.22,JP,1682313992
410,longjiang,47.3303,123.1836,60.66,10,45,11.03,CN,1682313993
411,ust-kuyga,70.0167,135.6,27.66,85,100,14.7,RU,1682313993
412,montlucon,46.3333,2.6,45.7,92,67,10.49,FR,1682313993
413,mecca,21.4267,39.8261,84.72,54,15,2.42,SA,1682313993
414,xocotla,19.0333,-97.1,64.42,61,80,5.57,MX,1682313994
415,mizdah,31.4451,12.9801,53.28,51,0,3.22,LY,1682313994
416,baraboo,43.4711,-89.7443,32.77,78,0,0.0,US,1682313994
417,rongcheng,30.634,117.8517,52.12,93,100,7.25,CN,1682313994
418,vila franca do campo,37.7167,-25.4333,64.81,91,100,21.9,PT,1682313995
419,coquimbo,-29.9533,-71.3436,60.51,85,10,0.45,CL,1682313995
420,natal,-5.795,-35.2094,75.85,88,20,6.91,BR,1682313995
421,vila,42.0304,-8.1588,49.08,100,98,3.49,PT,1682313995
422,lubao,14.9167,120.55,93.27,55,81,5.06,PH,1682313996
423,vila velha,-20.3297,-40.2925,71.94,87,0,2.3,BR,1682313996
424,xuanhua,40.6103,115.0447,59.45,34,54,10.45,CN,1682313996
425,sola,-13.8833,167.55,81.97,74,91,14.03,VU,1682313996
426,payakumbuh,-0.2202,100.6308,81.36,80,100,3.31,ID,1682313997
427,uvinza,-5.1036,30.3911,66.61,95,66,2.15,TZ,1682313997
428,koryukivka,51.7688,32.2481,53.37,60,84,4.54,UA,1682313997
429,shizunai,42.3339,142.3669,44.31,65,69,16.84,JP,1682313809
430,sfantu gheorghe,45.8667,25.7833,50.94,82,9,2.19,RO,1682313998
431,ishigaki,24.3448,124.1572,78.93,69,75,6.91,JP,1682313942
432,teguldet,57.3064,88.1667,47.43,59,100,8.66,RU,1682313998
433,half moon bay,37.4636,-122.4286,56.03,82,100,23.02,US,1682313998
434,bafoulabe,13.8065,-10.8321,87.87,19,5,4.27,ML,1682313999
435,marsh harbour,26.5412,-77.0636,74.55,72,0,9.44,BS,1682313999
436,korop,51.5664,32.9586,52.74,66,85,5.64,UA,1682314000
437,itarema,-2.9248,-39.9167,74.86,87,92,8.25,BR,1682314000
438,huanren,41.2647,125.3667,61.47,11,8,3.47,CN,1682314000
439,dreznica,43.5289,17.2819,50.29,70,97,8.43,BA,1682314000
440,avera,33.194,-82.5271,62.11,54,93,7.63,US,1682314000
441,fergus falls,46.283,-96.0776,30.18,91,0,0.0,US,1682314001
442,ayan,56.45,138.1667,38.73,54,28,16.46,RU,1682314001
443,alice springs,-23.7,133.8833,81.95,26,10,6.91,AU,1682314001
444,alta floresta,-9.8756,-56.0861,69.6,98,100,3.18,BR,1682314001
445,port hedland,-20.3167,118.5667,87.85,55,4,17.27,AU,1682314002
446,asuncion,-25.3007,-57.6359,62.04,94,0,1.72,PY,1682313777
447,saint-louis,16.3333,-15.0,73.04,41,0,9.08,SN,1682314002
448,hervey bay,-25.2986,152.8535,78.03,64,19,25.19,AU,1682314002
449,taltal,-25.4,-70.4833,62.76,86,3,2.13,CL,1682314003
450,dengzhou,37.8086,120.7508,55.02,33,93,9.93,CN,1682314003
451,lashio,22.9333,97.75,92.1,28,6,4.54,MM,1682314004
452,tiznit,29.5833,-9.5,63.86,58,17,1.36,MA,1682314004
453,madang,-5.2246,145.7966,85.96,63,39,5.26,PG,1682313736
454,bandarbeyla,9.4942,50.8122,82.98,63,16,0.98,SO,1682314005
455,vaitape,-16.5167,-151.75,81.37,77,78,8.25,PF,1682313974
456,eggenfelden,48.4054,12.7626,49.82,96,100,8.3,DE,1682314005
457,waipawa,-41.4122,175.5153,47.3,72,53,16.15,NZ,1682314006
458,gazanjyk,39.2446,55.5154,76.78,23,95,19.86,TM,1682314006
459,kostomuksha,64.571,30.5767,27.99,96,100,12.26,RU,1682314006
460,guanare,9.0418,-69.7421,84.22,70,100,8.05,VE,1682314007
461,moshi,-3.35,37.3333,71.04,88,100,0.92,TZ,1682314007
462,camana,-16.6228,-72.7111,69.96,87,13,7.4,PE,1682314007
463,las vegas,36.175,-115.1372,77.36,21,40,8.05,US,1682313864
464,ambanja,-13.6833,48.45,78.55,84,35,2.37,MG,1682314008
465,ponferrada,42.5466,-6.5962,50.83,98,94,4.0,ES,1682314008
466,coihueco,-36.6167,-71.8333,53.78,63,0,2.01,CL,1682314008
467,port moresby,-9.4431,147.1797,81.82,94,75,5.75,PG,1682313752
468,yarada,17.65,83.2667,89.92,55,40,4.61,IN,1682314009
469,cartagena del chaira,1.3349,-74.8429,70.92,100,100,0.98,CO,1682314009
470,kadoma,34.7333,135.5833,60.85,19,75,12.66,JP,1682314009
471,allapalli,19.4167,80.0667,94.15,38,19,8.93,IN,1682314009
472,yashkul,46.1711,45.3435,57.52,59,100,16.93,RU,1682314010
473,svarstad,59.399,9.9698,46.81,59,100,1.01,NO,1682314010
474,nalut,30.3333,10.85,58.55,52,93,10.27,LY,1682314011
475,nieves,15.3274,120.9485,90.91,53,74,9.84,PH,1682314011
476,tarakan,3.3,117.6333,90.9,58,40,3.44,ID,1682314011
477,arlit,18.7369,7.3853,79.74,13,59,4.65,NE,1682314012
478,simao,22.7886,100.9748,90.81,20,1,6.22,CN,1682314012
479,kushmurun,52.4503,64.6311,58.08,43,8,14.52,KZ,1682314012
480,nanchang,28.6833,115.8833,55.11,83,100,9.4,CN,1682314012
481,warangal,18.0,79.5833,91.45,45,59,12.97,IN,1682313837
482,west bay,19.3667,-81.4167,78.01,80,7,2.71,KY,1682314013
483,lensk,60.7253,114.9278,35.85,52,65,8.28,RU,1682314013
484,seoul,37.5683,126.9778,69.37,30,0,6.91,KR,1682313740
485,turukhansk,65.8167,87.9833,36.97,91,100,13.56,RU,1682314014
486,bukama,-9.2,25.85,69.08,96,100,1.5,CD,1682314014
487,sibolga,1.7427,98.7792,89.74,60,67,3.56,ID,1682314014
488,halifax,44.6453,-63.5724,37.4,92,31,3.44,CA,1682314015
489,dubai,25.2582,55.3047,84.49,28,0,4.61,AE,1682313820
490,srivardhan,18.0333,73.0167,87.15,49,98,9.69,IN,1682314016
491,tres arroyos,-38.3739,-60.2798,52.81,76,0,7.63,AR,1682314017
492,kudahuvadhoo,2.6708,72.8944,84.94,68,100,6.15,MV,1682314017
493,san carlos,9.6612,-68.5827,74.64,91,98,4.0,VE,1682314018
494,marystown,47.1666,-55.1483,40.86,100,100,8.99,CA,1682314018
495,baykit,61.67,96.37,37.96,100,100,5.26,RU,1682314018
496,bend,44.0582,-121.3153,44.47,64,84,8.99,US,1682314018
497,palmer,42.1584,-72.3287,46.81,87,100,1.99,US,1682314019
498,clyde river,70.4692,-68.5914,10.63,92,100,4.61,CA,1682314019
499,snasa,64.2457,12.3778,31.41,85,100,4.72,NO,1682314019
500,santa maria,-29.6842,-53.8069,58.42,79,46,5.48,BR,1682314020
501,kibre mengist,5.8833,38.9833,62.4,85,78,1.77,ET,1682314020
502,rio grande,-32.035,-52.0986,67.19,91,100,9.73,BR,1682314020
503,ixtapa,20.7,-105.2,74.43,83,20,2.3,MX,1682314021
504,amapa,1.0,-52.0,71.01,99,100,0.78,BR,1682314021
505,chitre,7.9667,-80.4333,77.29,76,69,2.86,PA,1682314021
506,pascagoula,30.3658,-88.5561,63.32,63,0,10.36,US,1682314022
507,lasa,46.6166,10.7002,45.48,95,100,5.35,IT,1682314022
508,aklavik,68.2191,-135.0107,0.68,94,100,10.16,CA,1682314022
509,sao joao da barra,-21.6403,-41.0511,66.63,86,0,8.75,BR,1682314022
510,talara,-4.5772,-81.2719,78.69,79,100,3.85,PE,1682314023
511,kvareli,41.9524,45.8151,60.91,73,100,2.1,GE,1682314023
512,dhemaji,27.4833,94.5833,78.87,40,50,6.22,IN,1682314024
513,hobyo,5.3505,48.5268,84.36,72,98,8.55,SO,1682314024
514,westport,41.1415,-73.3579,51.62,89,20,5.75,US,1682314024
515,batagay,67.6333,134.6333,25.03,84,100,10.85,RU,1682314025
516,asau,46.4333,26.4,43.72,76,16,3.11,RO,1682314025
517,caravelas,-17.7125,-39.2481,75.87,71,88,9.28,BR,1682314025
518,mamontovo,52.7055,81.6244,56.89,39,81,25.46,RU,1682314025
519,iquitos,-3.7481,-73.2472,75.24,94,100,4.61,PE,1682314025
520,valkla,59.4744,25.3186,51.85,71,61,14.56,EE,1682314026
521,saldanha,-33.0117,17.9442,60.85,98,100,10.11,ZA,1682314026
522,awjilah,29.1081,21.2869,71.94,30,0,11.01,LY,1682314026
523,launceston,-41.45,147.1667,65.84,68,75,14.97,AU,1682313896
524,dudinka,69.4058,86.1778,36.63,81,45,13.94,RU,1682314027
525,gilgit,35.9221,74.3087,59.11,29,0,2.73,PK,1682314027
526,marienburg,54.0359,19.0266,56.88,95,99,2.48,PL,1682314027
527,kula,38.5473,28.6498,48.31,72,0,0.47,TR,1682314029
528,pochutla,15.7432,-96.4661,78.82,81,84,5.84,MX,1682314029
529,pangkalanbuun,-2.6833,111.6167,92.21,55,76,2.42,ID,1682314029
530,lufilufi,-13.8745,-171.5986,83.79,77,44,6.31,WS,1682314029
531,alghero,40.5589,8.3181,57.29,94,20,6.91,IT,1682314030
532,chukhloma,58.7525,42.6825,56.16,56,94,7.45,RU,1682314030
533,mae hong son,19.3003,97.9685,95.14,41,20,3.44,TH,1682314030
534,narino,5.6089,-75.1766,60.26,98,100,2.26,CO,1682314030
535,nome,64.5011,-165.4064,23.07,54,0,17.27,US,1682314031
536,kangaatsiaq,68.3065,-53.4641,31.14,99,100,3.33,GL,1682314031
537,yar-sale,66.8333,70.8333,22.3,94,100,24.63,RU,1682314032
538,koslan,63.4564,48.8989,31.28,74,100,4.65,RU,1682314032
539,karangampel,-6.4622,108.4519,85.62,70,19,8.3,ID,1682314033
540,takestan,36.0696,49.6959,60.93,31,77,2.77,IR,1682314033
541,kutum,14.2,24.6667,78.31,22,78,8.55,SD,1682314033
542,garowe,8.4054,48.4845,78.69,67,22,5.61,SO,1682314033
543,vagur,61.4732,-6.8119,36.9,62,100,24.43,FO,1682314034
544,rosetta,31.4044,30.4164,65.32,68,0,8.23,EG,1682314035
545,baley,51.6,116.6333,37.0,19,46,13.33,RU,1682314036
546,khorramshahr,30.4397,48.1664,84.16,58,62,2.3,IR,1682314037
547,saint anthony,45.0205,-93.218,39.09,65,100,9.22,US,1682314037
548,kolyvan,55.3053,82.7391,60.42,49,100,19.51,RU,1682314037
549,sorong,-0.8833,131.25,85.37,68,16,8.3,ID,1682314038
550,komsomolskiy,40.4272,71.7189,77.72,22,38,4.61,UZ,1682314039
551,gobabis,-22.45,18.9667,59.58,80,97,22.12,NA,1682314039
552,broken hill,-31.95,141.4333,77.56,31,0,10.74,AU,1682314039
553,senanga,-16.1167,23.2667,67.8,56,100,0.54,ZM,1682314041
554,klaksvik,62.2266,-6.589,34.72,63,100,25.12,FO,1682314042
555,grindavik,63.8424,-22.4338,37.35,87,75,5.75,IS,1682314042
556,abu samrah,35.3029,37.1841,60.17,54,0,8.59,SY,1682314043
557,ancud,-41.8697,-73.8203,45.19,88,1,3.8,CL,1682314043
558,pangnirtung,66.1451,-65.7125,31.06,85,100,5.84,CA,1682314044
559,anyksciai,55.5256,25.1026,52.72,70,3,12.44,LT,1682314044
560,flinders,-34.5833,150.8552,72.37,74,79,3.0,AU,1682313939
561,salamanca,40.8333,-6.0,44.38,96,51,2.19,ES,1682314045
